{
  "type": "FeatureCollection",
  "features": [
    {
      "type": "Feature",
      "properties": {
        "address": "4 place amédée bonnet, 69002 lyon",
        "names": ["wojo hotel dieu"],
        "projects": ["codingames"],
        "links": ["margaux hourdin"],
        "data": [""],
      },
      "geometry": {
        "type": "Point",
        "coordinates": [
          4.836367,
          45.758555
        ]
      },
      "id": "point.0033184784449.margaux.hourdin@wojo.com"
    },
    {
      "type": "Feature",
      "properties": {
        "address": "16 boulevard Princesse Charlotte, 98000 Monaco",
        "names": ["wojo monaco"],
        "projects": ["codingames"],
        "links": ["margaux hourdin"],
        "data": [""],
      },
      "geometry": {
        "type": "Point",
        "coordinates": [
          4.857156,
          45.762487
        ]
      },
      "id": "point.0033184784449.margaux.hourdin@wojo.com"
    },
    {
      "type": "Feature",
      "properties": {
        "address": "rue bonnel, 69003 Lyon",
        "names": ["tour oxygene"],
        "projects": ["codingames"],
        "links": [""],
        "data": [""],
      },
      "geometry": {
        "type": "Point",
        "coordinates": [
          4.857156,
          45.762487
        ]
      },
      "id": "point..."
    },
    {
      "type": "Feature",
      "properties": {
        "address": "92 Cours Lafayette, 69003 Lyon",
        "names": ["mama works lyon"],
        "projects": ["codingames"],
        "links": [""],
        "data": [""],
      },
      "geometry": {
        "type": "Point",
        "coordinates": [
          4.857156,
          45.762487
        ]
      },
      "id": "point.0033153534462.rp@mamashelter.com.contact@mamaworks.com"
    },
    {
      "type": "Feature",
      "properties": {
        "address": "51 Quai Lawton, 33300 Bordeaux",
        "names": ["mama works bordeaux"],
        "projects": ["codingames"],
        "links": [""],
        "data": [""],
      },
      "geometry": {
        "type": "Point",
        "coordinates": [
          -0.557224,
          44.864543
        ]
      },
      "id": "point.0033540248646.rp@mamashelter.com.contact@mamaworks.com"
    },
    {
      "type": "Feature",
      "properties": {
        "address": "134 Rue des Templiers, 59000 Lille",
        "names": ["mama works lille"],
        "projects": ["codingames"],
        "links": [""],
        "data": [""],
      },
      "geometry": {
        "type": "Point",
        "coordinates": [
          3.022681,
          50.633326
        ]
      },
      "id": "point.0033359824263.rp@mamashelter.com.contact@mamaworks.com"
    },
    {
      "type": "Feature",
      "properties": {
        "address": "74 rue de la Charité, 69002 Lyon",
        "names": ["les petites cantines lyon"],
        "projects": ["codingames"],
        "links": ["nicolas wirtz", "annabel", "lorene", "lucie", "marie", "tilen"],
        "data": [""],
      },
      "geometry": {
        "type": "Point",
        "coordinates": [
          4.829989,
          45.750536
        ]
      },
      "id": "point.0033987044630.perrache@lespetitescantines.org"
    }
  ]
}
